{
  "breweries": [
    {
      "id": "d81ff708-b5d2-478f-af6a-6d40f5beb9ac",
      "name": "12 Gates Brewing Company",
      "brewery_type": "brewpub",
      "address_1": "80 Earhart Dr Ste 20",
      "address_2": null,
      "address_3": null,
      "city": "Williamsville",
      "state_province": "New York",
      "postal_code": "14221-7804",
      "country": "United States",
      "longitude": null,
      "latitude": null,
      "phone": "7169066600",
      "website_url": "http://www.12gatesbrewing.com",
      "state": "New York",
      "street": "80 Earhart Dr Ste 20"
    },
    {
      "id": "ee6d39c6-092f-4623-8099-5b8643f70dbe",
      "name": "16 Stone Brewpub",
      "brewery_type": "brewpub",
      "address_1": "9542 Main St",
      "address_2": null,
      "address_3": null,
      "city": "Holland Patent",
      "state_province": "New York",
      "postal_code": "13354",
      "country": "United States",
      "longitude": "-75.2565195",
      "latitude": "43.24211175",
      "phone": "3158658500",
      "website_url": "http://www.16stonebrewpub.com",
      "state": "New York",
      "street": "9542 Main St"
    },
    {
      "id": "4a09f017-db8f-42e1-a8ec-a0cd81c28761",
      "name": "1940's Brewing Company",
      "brewery_type": "micro",
      "address_1": "1337 Lincoln Ave Unit 1",
      "address_2": null,
      "address_3": null,
      "city": "Holbrook",
      "state_province": "New York",
      "postal_code": "11741-2275",
      "country": "United States",
      "longitude": null,
      "latitude": null,
      "phone": "6315334838",
      "website_url": "http://www.1940sbrewingcompany.com",
      "state": "New York",
      "street": "1337 Lincoln Ave Unit 1"
    },
    {
      "id": "8624d11b-8593-49a8-89b4-c46a0f111cd7",
      "name": "2 Way Brewing Company",
      "brewery_type": "brewpub",
      "address_1": "18 W Main St",
      "address_2": null,
      "address_3": null,
      "city": "Beacon",
      "state_province": "New York",
      "postal_code": "12508-2512",
      "country": "United States",
      "longitude": "-73.9809868",
      "latitude": "41.5082102",
      "phone": "8452027334",
      "website_url": "http://www.2waybrewingcompany.com",
      "state": "New York",
      "street": "18 W Main St"
    },
    {
      "id": "00fdce16-e1dd-4678-87f2-45550f9083e1",
      "name": "212 Brewing Company",
      "brewery_type": "contract",
      "address_1": "21476 Route 23",
      "address_2": null,
      "address_3": null,
      "city": "Davenport",
      "state_province": "New York",
      "postal_code": "13750",
      "country": "United States",
      "longitude": null,
      "latitude": null,
      "phone": "2123779050",
      "website_url": null,
      "state": "New York",
      "street": "21476 Route 23"
    },
    {
      "id": "dad10840-28ab-4dcf-9005-bf2cc2665b5a",
      "name": "42 North Brewing Company",
      "brewery_type": "brewpub",
      "address_1": "25 Pine St",
      "address_2": null,
      "address_3": null,
      "city": "East Aurora",
      "state_province": "New York",
      "postal_code": "14052-1827",
      "country": "United States",
      "longitude": "-78.607989",
      "latitude": "42.769311",
      "phone": "7168057500",
      "website_url": "http://www.42northbrewing.com",
      "state": "New York",
      "street": "25 Pine St"
    },
    {
      "id": "6f431fe7-b136-444b-84e3-3a2042903d93",
      "name": "6 Degrees of Separation",
      "brewery_type": "brewpub",
      "address_1": "35 Main St",
      "address_2": null,
      "address_3": null,
      "city": "Ossining",
      "state_province": "New York",
      "postal_code": "10562-4662",
      "country": "United States",
      "longitude": "-73.86768188",
      "latitude": "41.15866213",
      "phone": "9144325969",
      "website_url": "http://www.6degreesbp.com",
      "state": "New York",
      "street": "35 Main St"
    },
    {
      "id": "a1199657-e4a9-496b-88c3-999f9e7e97e9",
      "name": "7 Sins Brewery",
      "brewery_type": "micro",
      "address_1": "10593 W Main Rd",
      "address_2": null,
      "address_3": null,
      "city": "Ripley",
      "state_province": "New York",
      "postal_code": "14775-9746",
      "country": "United States",
      "longitude": "-79.7497349",
      "latitude": "42.24869073",
      "phone": "7165812090",
      "website_url": "http://www.7sinsbrewery.com",
      "state": "New York",
      "street": "10593 W Main Rd"
    },
    {
      "id": "1682e94f-73ba-4035-93be-1fb28bb2cee7",
      "name": "8th Ward Brewing Company",
      "brewery_type": "planning",
      "address_1": null,
      "address_2": null,
      "address_3": null,
      "city": "Poughkeepsie",
      "state_province": "New York",
      "postal_code": "12603-3401",
      "country": "United States",
      "longitude": null,
      "latitude": null,
      "phone": null,
      "website_url": null,
      "state": "New York",
      "street": null
    },
    {
      "id": "7918a6dd-08d0-4157-a841-01b20a9a7a4c",
      "name": "Abandon Brewing",
      "brewery_type": "micro",
      "address_1": "2994 Merritt Hill Rd",
      "address_2": null,
      "address_3": null,
      "city": "Penn Yan",
      "state_province": "New York",
      "postal_code": "14527-8938",
      "country": "United States",
      "longitude": null,
      "latitude": null,
      "phone": "5852093276",
      "website_url": "http://www.abandonbrewing.com",
      "state": "New York",
      "street": "2994 Merritt Hill Rd"
    },
    {
      "id": "a180c4e0-77cc-4088-951c-62192abd99d4",
      "name": "Adirondack Pub and Brewery",
      "brewery_type": "micro",
      "address_1": "33 Canada St",
      "address_2": null,
      "address_3": null,
      "city": "Lake George",
      "state_province": "New York",
      "postal_code": "12845-1603",
      "country": "United States",
      "longitude": "-73.71407763",
      "latitude": "43.41850655",
      "phone": "5186680002",
      "website_url": "http://www.adkpub.com",
      "state": "New York",
      "street": "33 Canada St"
    },
    {
      "id": "1b7f0552-3b1a-4737-8cb4-eb8d7134d903",
      "name": "Adirondack Toboggan Company Microbrewery",
      "brewery_type": "micro",
      "address_1": "202A W Main St",
      "address_2": null,
      "address_3": null,
      "city": "Gouverneur",
      "state_province": "New York",
      "postal_code": "13642-1334",
      "country": "United States",
      "longitude": "-75.47489238",
      "latitude": "44.33237311",
      "phone": "3157716313",
      "website_url": "http://www.adktoboggan.net",
      "state": "New York",
      "street": "202A W Main St"
    },
    {
      "id": "06ac0316-a30f-40c6-acb7-c08fea0c30b1",
      "name": "Akwesasne Mohawk Casino Resort",
      "brewery_type": "planning",
      "address_1": null,
      "address_2": null,
      "address_3": null,
      "city": "Akwesasne",
      "state_province": "New York",
      "postal_code": "13655-1800",
      "country": "United States",
      "longitude": null,
      "latitude": null,
      "phone": "5183582222",
      "website_url": "http://mohawkcasino.com",
      "state": "New York",
      "street": null
    },
    {
      "id": "ed3ea3ae-04d3-4356-ab96-a74514992a50",
      "name": "Alewife Brewing Company",
      "brewery_type": "brewpub",
      "address_1": "514 51st Ave",
      "address_2": null,
      "address_3": null,
      "city": "Long Island City",
      "state_province": "New York",
      "postal_code": "11101-5879",
      "country": "United States",
      "longitude": "-73.95625257",
      "latitude": "40.74232214",
      "phone": "7189377494",
      "website_url": "http://www.alewife.beer",
      "state": "New York",
      "street": "514 51st Ave"
    },
    {
      "id": "810e0e7c-293a-4e3e-a557-13691d30d399",
      "name": "Alphabet City Brewing Co",
      "brewery_type": "contract",
      "address_1": "96 Avenue C Frnt 4",
      "address_2": null,
      "address_3": null,
      "city": "New York",
      "state_province": "New York",
      "postal_code": "10009-7055",
      "country": "United States",
      "longitude": null,
      "latitude": null,
      "phone": "9143566809",
      "website_url": "http://www.acbnyc.com",
      "state": "New York",
      "street": "96 Avenue C Frnt 4"
    },
    {
      "id": "5fffcb8c-fbca-4633-8ef4-7bfd7dd6d473",
      "name": "Amber Lantern Brewing Company",
      "brewery_type": "brewpub",
      "address_1": "44 N Main St",
      "address_2": null,
      "address_3": null,
      "city": "Warsaw",
      "state_province": "New York",
      "postal_code": "14569-1326",
      "country": "United States",
      "longitude": "-78.132363",
      "latitude": "42.7408423",
      "phone": "5857863559",
      "website_url": "http://www.amberlanternbrewingcompany.com",
      "state": "New York",
      "street": "44 N Main St"
    },
    {
      "id": "032a363c-447b-495a-bfed-814201b877c0",
      "name": "Andean Brewing",
      "brewery_type": "micro",
      "address_1": "300 Corporate Dr Ste 2",
      "address_2": null,
      "address_3": null,
      "city": "Blauvelt",
      "state_province": "New York",
      "postal_code": "10913-1162",
      "country": "United States",
      "longitude": null,
      "latitude": null,
      "phone": "6464505852",
      "website_url": null,
      "state": "New York",
      "street": "300 Corporate Dr Ste 2"
    },
    {
      "id": "baec5c2d-a983-49e0-beb9-ca55879d4139",
      "name": "Anheuser-Busch Inc â Baldwinsville",
      "brewery_type": "large",
      "address_1": "2885 Belgium Rd",
      "address_2": null,
      "address_3": null,
      "city": "Baldwinsville",
      "state_province": "New York",
      "postal_code": "13027-2706",
      "country": "United States",
      "longitude": "-76.31159343",
      "latitude": "43.16510925",
      "phone": "3156354000",
      "website_url": null,
      "state": "New York",
      "street": "2885 Belgium Rd"
    },
    {
      "id": "e15991e7-755b-465a-9d39-0f850305e900",
      "name": "Apex Brewery",
      "brewery_type": "planning",
      "address_1": null,
      "address_2": null,
      "address_3": null,
      "city": "Central Valley",
      "state_province": "New York",
      "postal_code": "10917-3708",
      "country": "United States",
      "longitude": null,
      "latitude": null,
      "phone": "8455493006",
      "website_url": "http://www.apexbeer.co",
      "state": "New York",
      "street": null
    },
    {
      "id": "9408064a-bc10-4e15-84d0-3ff698036d4f",
      "name": "Argyle Brewing Company",
      "brewery_type": "micro",
      "address_1": "1 Main St",
      "address_2": null,
      "address_3": null,
      "city": "Greenwich",
      "state_province": "New York",
      "postal_code": "12834-1209",
      "country": "United States",
      "longitude": "-73.496758",
      "latitude": "43.08767125",
      "phone": "5183387405",
      "website_url": "http://www.argylebrewing.com",
      "state": "New York",
      "street": "1 Main St"
    },
    {
      "id": "647378c3-df63-4da2-a88d-808943dcd4f9",
      "name": "Arrowood Farms",
      "brewery_type": "micro",
      "address_1": "236 Lower Whitfield Rd",
      "address_2": null,
      "address_3": null,
      "city": "Accord",
      "state_province": "New York",
      "postal_code": "12404-5809",
      "country": "United States",
      "longitude": "-74.24891742",
      "latitude": "41.80666144",
      "phone": "8452530389",
      "website_url": "http://www.arrowoodfarms.com",
      "state": "New York",
      "street": "236 Lower Whitfield Rd"
    },
    {
      "id": "8fb6c630-7647-4a16-a55a-fde63c129636",
      "name": "Artisanal Brew Works",
      "brewery_type": "micro",
      "address_1": "41 Geyser Rd",
      "address_2": null,
      "address_3": null,
      "city": "Saratoga Springs",
      "state_province": "New York",
      "postal_code": "12866-9038",
      "country": "United States",
      "longitude": null,
      "latitude": null,
      "phone": "5185942337",
      "website_url": "http://www.artisanalbrewworks.com",
      "state": "New York",
      "street": "41 Geyser Rd"
    },
    {
      "id": "74f46cc4-156c-4986-b653-b5240678ff54",
      "name": "Aurora Ale & Lager",
      "brewery_type": "micro",
      "address_1": "1891 State Route 90 N",
      "address_2": null,
      "address_3": null,
      "city": "King Ferry",
      "state_province": "New York",
      "postal_code": "13081-9719",
      "country": "United States",
      "longitude": null,
      "latitude": null,
      "phone": null,
      "website_url": "http://www.brewaurora.com",
      "state": "New York",
      "street": "1891 State Route 90 N"
    },
    {
      "id": "16ead71f-bbd5-4b34-b434-a3bc7849349f",
      "name": "Ausable Brewing Co",
      "brewery_type": "micro",
      "address_1": "765 Mace Chasm Rd",
      "address_2": null,
      "address_3": null,
      "city": "Keeseville",
      "state_province": "New York",
      "postal_code": "12944-2425",
      "country": "United States",
      "longitude": null,
      "latitude": null,
      "phone": "3152443295",
      "website_url": "http://ausablebrewing.tumblr.com",
      "state": "New York",
      "street": "765 Mace Chasm Rd"
    },
    {
      "id": "03df12a0-f2ff-4c37-b862-e6df31123b74",
      "name": "B9 Beverages Inc",
      "brewery_type": "contract",
      "address_1": "404 5th Ave # 7.055",
      "address_2": null,
      "address_3": null,
      "city": "New York",
      "state_province": "New York",
      "postal_code": "10018-2797",
      "country": "United States",
      "longitude": null,
      "latitude": null,
      "phone": null,
      "website_url": null,
      "state": "New York",
      "street": "404 5th Ave # 7.055"
    },
    {
      "id": "418c8bd5-997f-47f5-8147-a8a243517634",
      "name": "Bacchus Brewing",
      "brewery_type": "micro",
      "address_1": "15 Ellis Dr",
      "address_2": null,
      "address_3": null,
      "city": "Dryden",
      "state_province": "New York",
      "postal_code": "13053-9630",
      "country": "United States",
      "longitude": "-76.29904171",
      "latitude": "42.49966971",
      "phone": "6078448474",
      "website_url": "http://www.bacchusbrewing.com",
      "state": "New York",
      "street": "15 Ellis Dr"
    },
    {
      "id": "299ebba1-6bb3-4998-b4a5-e0f4fad4c443",
      "name": "Bandwagon Brewery",
      "brewery_type": "micro",
      "address_1": "3582 West Ave",
      "address_2": null,
      "address_3": null,
      "city": "Interlaken",
      "state_province": "New York",
      "postal_code": "14847",
      "country": "United States",
      "longitude": "-76.7278241",
      "latitude": "42.61661956",
      "phone": "6072295608",
      "website_url": "http://www.bandwagonbeer.com",
      "state": "New York",
      "street": "3582 West Ave"
    },
    {
      "id": "c51c96f4-d444-4e83-b332-924d7811d236",
      "name": "BarkEater Craft Brewery",
      "brewery_type": "proprietor",
      "address_1": "5411 Shady Ave",
      "address_2": null,
      "address_3": null,
      "city": "Lowville",
      "state_province": "New York",
      "postal_code": "13367-1601",
      "country": "United States",
      "longitude": "-75.4867252",
      "latitude": "43.7874658",
      "phone": "3157758959",
      "website_url": "http://www.barkeaterbrew.com",
      "state": "New York",
      "street": "5411 Shady Ave"
    },
    {
      "id": "f2b298d8-a498-41bc-9321-770e03376866",
      "name": "Barnshed Brewing",
      "brewery_type": "micro",
      "address_1": "100 Lauman Ln",
      "address_2": null,
      "address_3": null,
      "city": "Hicksville",
      "state_province": "New York",
      "postal_code": "11801-6574",
      "country": "United States",
      "longitude": "-73.50094256",
      "latitude": "40.74420335",
      "phone": "5163766514",
      "website_url": "http://www.barnshedbrewing.com",
      "state": "New York",
      "street": "100 Lauman Ln"
    },
    {
      "id": "3a2f762e-be48-4caf-ba77-d9253f50182a",
      "name": "Barrage Brewing Co",
      "brewery_type": "micro",
      "address_1": "32 Allen Blvd Ste E",
      "address_2": null,
      "address_3": null,
      "city": "Farmingdale",
      "state_province": "New York",
      "postal_code": "11735-5625",
      "country": "United States",
      "longitude": null,
      "latitude": null,
      "phone": "6313357941",
      "website_url": "http://www.barragebrewing.com",
      "state": "New York",
      "street": "32 Allen Blvd Ste E"
    },
    {
      "id": "a6704545-a3ff-4e4d-a458-90979968fe1c",
      "name": "Barrier Brewing Co",
      "brewery_type": "micro",
      "address_1": "3001 New St Ste A2",
      "address_2": null,
      "address_3": null,
      "city": "Oceanside",
      "state_province": "New York",
      "postal_code": "11572-2747",
      "country": "United States",
      "longitude": null,
      "latitude": null,
      "phone": "5165941028",
      "website_url": "http://www.barrierbrewing.com",
      "state": "New York",
      "street": "3001 New St Ste A2"
    },
    {
      "id": "ee894df8-970e-4fcd-96fd-56a385f03aab",
      "name": "Battle Hill Brewing Company",
      "brewery_type": "micro",
      "address_1": "4 Charles Street",
      "address_2": null,
      "address_3": null,
      "city": "Fort Ann",
      "state_province": "New York",
      "postal_code": "12827",
      "country": "United States",
      "longitude": "-73.48739346",
      "latitude": "43.41676935",
      "phone": "5186391033",
      "website_url": "http://www.battlehillbrewing.com",
      "state": "New York",
      "street": "4 Charles Street"
    },
    {
      "id": "36e42b14-6bb0-4bba-b9d4-662def2778a6",
      "name": "Beer Tree Brew Co",
      "brewery_type": "micro",
      "address_1": "197 Rte 369",
      "address_2": null,
      "address_3": null,
      "city": "Port Crane",
      "state_province": "New York",
      "postal_code": "13833",
      "country": "United States",
      "longitude": null,
      "latitude": null,
      "phone": null,
      "website_url": "http://www.beertreebrew.com",
      "state": "New York",
      "street": "197 Rte 369"
    },
    {
      "id": "d91eef0b-b1b1-40f8-9895-b92c6e865027",
      "name": "Bellport Brewing Company",
      "brewery_type": "proprietor",
      "address_1": null,
      "address_2": null,
      "address_3": null,
      "city": "Rocky Point",
      "state_province": "New York",
      "postal_code": "11778-8986",
      "country": "United States",
      "longitude": null,
      "latitude": null,
      "phone": "6319094457",
      "website_url": "http://www.bellportbrewing.com",
      "state": "New York",
      "street": null
    },
    {
      "id": "6baafd1a-3faf-41f6-bce8-7f9c223b2d1c",
      "name": "Big Alice Brewing Company",
      "brewery_type": "micro",
      "address_1": "808 43rd Rd",
      "address_2": null,
      "address_3": null,
      "city": "Long Island City",
      "state_province": "New York",
      "postal_code": "11101-6820",
      "country": "United States",
      "longitude": null,
      "latitude": null,
      "phone": "3476882337",
      "website_url": "http://www.bigalicebrewing.com",
      "state": "New York",
      "street": "808 43rd Rd"
    },
    {
      "id": "5db014b6-be92-4c4d-b95e-f5156550ad05",
      "name": "Big Ditch Brewing Company",
      "brewery_type": "micro",
      "address_1": "55 E Huron St",
      "address_2": null,
      "address_3": null,
      "city": "Buffalo",
      "state_province": "New York",
      "postal_code": "14203-1632",
      "country": "United States",
      "longitude": "-78.8709352",
      "latitude": "42.888031",
      "phone": "7168545050",
      "website_url": "http://www.bigditchbrewing.com",
      "state": "New York",
      "street": "55 E Huron St"
    },
    {
      "id": "dcc9cdb6-415f-4783-aa42-c5cfb7664dc6",
      "name": "Big Inlet Brewing",
      "brewery_type": "planning",
      "address_1": null,
      "address_2": null,
      "address_3": null,
      "city": "Mayville",
      "state_province": "New York",
      "postal_code": "14757-9730",
      "country": "United States",
      "longitude": null,
      "latitude": null,
      "phone": "7165737564",
      "website_url": "http://www.biginletbrewing.com",
      "state": "New York",
      "street": null
    },
    {
      "id": "d5e9205f-ff1f-4cd2-9eec-2844197449f1",
      "name": "Big Slide Brewery",
      "brewery_type": "brewpub",
      "address_1": "5686 Cascade Road",
      "address_2": null,
      "address_3": null,
      "city": "Lake Placid",
      "state_province": "New York",
      "postal_code": "12946",
      "country": "United States",
      "longitude": "-73.96977615",
      "latitude": "44.26461237",
      "phone": "5185237844",
      "website_url": "http://www.bigslidebrewery.com",
      "state": "New York",
      "street": "5686 Cascade Road"
    },
    {
      "id": "00eddf9c-e274-4d9a-8957-457e3ea570ac",
      "name": "Big Tupper Brewing",
      "brewery_type": "brewpub",
      "address_1": "12 Cliff Ave",
      "address_2": null,
      "address_3": null,
      "city": "Tupper Lake",
      "state_province": "New York",
      "postal_code": "12986-1719",
      "country": "United States",
      "longitude": "-74.46576367",
      "latitude": "44.223293",
      "phone": "5183596350",
      "website_url": "http://www.bigtupperbrewing.com",
      "state": "New York",
      "street": "12 Cliff Ave"
    },
    {
      "id": "5b64e8ae-f38a-4cf0-8d60-e3f0cf3c9572",
      "name": "Binghamton Brewing Co",
      "brewery_type": "micro",
      "address_1": "15 Avenue B",
      "address_2": null,
      "address_3": null,
      "city": "Johnson City",
      "state_province": "New York",
      "postal_code": "13790-2234",
      "country": "United States",
      "longitude": "-75.95337584",
      "latitude": "42.11473563",
      "phone": "6072383448",
      "website_url": "http://www.bingbrew.com",
      "state": "New York",
      "street": "15 Avenue B"
    },
    {
      "id": "aec527a2-0534-4252-86e0-56c621fc835d",
      "name": "Birreria @ Eataly",
      "brewery_type": "brewpub",
      "address_1": "200 5th Ave Fl 14",
      "address_2": null,
      "address_3": null,
      "city": "New York",
      "state_province": "New York",
      "postal_code": "10010-3302",
      "country": "United States",
      "longitude": null,
      "latitude": null,
      "phone": "2125390204",
      "website_url": "http://www.eatalyny.com",
      "state": "New York",
      "street": "200 5th Ave Fl 14"
    },
    {
      "id": "a0fadb5a-1b4c-4e40-9782-27f06c10a52d",
      "name": "Black Forest Brew Haus",
      "brewery_type": "brewpub",
      "address_1": "2015 New Hwy",
      "address_2": null,
      "address_3": null,
      "city": "Farmingdale",
      "state_province": "New York",
      "postal_code": "11735-1103",
      "country": "United States",
      "longitude": "-73.41443291",
      "latitude": "40.7550515",
      "phone": "6313919500",
      "website_url": "http://www.blackforestbrewhaus.com",
      "state": "New York",
      "street": "2015 New Hwy"
    },
    {
      "id": "2a08f3ad-f6fc-442f-979a-2dbadd0c3c28",
      "name": "Blind Bat Brewery LLC, The",
      "brewery_type": "micro",
      "address_1": "420 Harrison Dr",
      "address_2": null,
      "address_3": null,
      "city": "Centerport",
      "state_province": "New York",
      "postal_code": "11721-1216",
      "country": "United States",
      "longitude": "-73.38113106",
      "latitude": "40.8959081",
      "phone": "6318917909",
      "website_url": "http://www.BlindBatBrewery.com",
      "state": "New York",
      "street": "420 Harrison Dr"
    },
    {
      "id": "2595ff73-65f0-41ea-820c-3d7d35f453ca",
      "name": "Blue Collar Brewery, Inc.",
      "brewery_type": "brewpub",
      "address_1": "40 Cottage St",
      "address_2": null,
      "address_3": null,
      "city": "Poughkeepsie",
      "state_province": "New York",
      "postal_code": "12601-2015",
      "country": "United States",
      "longitude": "-73.91831",
      "latitude": "41.707234",
      "phone": "8454542739",
      "website_url": "http://www.thebluecollarbrewery.com",
      "state": "New York",
      "street": "40 Cottage St"
    },
    {
      "id": "aef7a703-7954-41ed-9e29-c6d6bb8a23fe",
      "name": "Blue Line Brewery",
      "brewery_type": "brewpub",
      "address_1": "555 Lake Flower Ave",
      "address_2": null,
      "address_3": null,
      "city": "Saranac Lake",
      "state_province": "New York",
      "postal_code": "12983-2465",
      "country": "United States",
      "longitude": "-74.11766659",
      "latitude": "44.31358605",
      "phone": "5183548114",
      "website_url": "http://www.bluelinebrew.com",
      "state": "New York",
      "street": "555 Lake Flower Ave"
    },
    {
      "id": "448fb5bd-505b-40a0-ab84-0720ff5f281c",
      "name": "Blue Point Brewing",
      "brewery_type": "large",
      "address_1": "225 West Main St",
      "address_2": null,
      "address_3": null,
      "city": "Patchogue",
      "state_province": "New York",
      "postal_code": "11772",
      "country": "United States",
      "longitude": "-73.02103705",
      "latitude": "40.76644215",
      "phone": null,
      "website_url": null,
      "state": "New York",
      "street": "225 West Main St"
    },
    {
      "id": "593ee04a-4af6-4d32-a00d-f8ac6357469a",
      "name": "Blue Point Brewing Co",
      "brewery_type": "large",
      "address_1": "161 River Ave",
      "address_2": null,
      "address_3": null,
      "city": "Patchogue",
      "state_province": "New York",
      "postal_code": "11772-3304",
      "country": "United States",
      "longitude": "-73.0216063",
      "latitude": "40.75913445",
      "phone": "6314756944",
      "website_url": "http://www.bluepointbrewing.com",
      "state": "New York",
      "street": "161 River Ave"
    },
    {
      "id": "beb4abeb-3386-4ee8-9838-82ea78de6ecf",
      "name": "Bolton Landing Brewing Co.",
      "brewery_type": "micro",
      "address_1": "4933 Lake Shore Dr",
      "address_2": null,
      "address_3": null,
      "city": "Bolton Landing",
      "state_province": "New York",
      "postal_code": "12814-7757",
      "country": "United States",
      "longitude": "-73.655636",
      "latitude": "43.555707",
      "phone": "5186442739",
      "website_url": "http://www.boltonlandingbrewing.com",
      "state": "New York",
      "street": "4933 Lake Shore Dr"
    },
    {
      "id": "76d91768-88ce-485a-91e2-83baf9d2f10c",
      "name": "Boots Brewing Company, Inc.",
      "brewery_type": "micro",
      "address_1": "89 Public Sq",
      "address_2": null,
      "address_3": null,
      "city": "Watertown",
      "state_province": "New York",
      "postal_code": "13601-2626",
      "country": "United States",
      "longitude": "-75.90904644",
      "latitude": "43.97475173",
      "phone": "3157670794",
      "website_url": "http://www.bootsbrew.com",
      "state": "New York",
      "street": "89 Public Sq"
    },
    {
      "id": "50c38066-568b-4e12-a4cb-536073d998c0",
      "name": "Bottomless Brewing, LLC",
      "brewery_type": "brewpub",
      "address_1": "3543 E Lake Rd",
      "address_2": null,
      "address_3": null,
      "city": "Geneva",
      "state_province": "New York",
      "postal_code": "14456-9261",
      "country": "United States",
      "longitude": null,
      "latitude": null,
      "phone": "3153254380",
      "website_url": "http://www.bottomlessbrewing.com",
      "state": "New York",
      "street": "3543 E Lake Rd"
    },
    {
      "id": "6751228c-5373-4a54-8d68-72df6849a437",
      "name": "26 Degree Brewing Company",
      "brewery_type": "micro",
      "address_1": "2600 E Atlantic Blvd",
      "address_2": null,
      "address_3": null,
      "city": "Pompano Beach",
      "state_province": "Florida",
      "postal_code": "33062-4940",
      "country": "United States",
      "longitude": "-80.1224169",
      "latitude": "26.2316338",
      "phone": "9545326964",
      "website_url": null,
      "state": "Florida",
      "street": "2600 E Atlantic Blvd"
    },
    {
      "id": "065200ec-51cf-4612-b1b9-61f7db489c3c",
      "name": "3 Daughters Brewing",
      "brewery_type": "micro",
      "address_1": "222 22nd St S",
      "address_2": null,
      "address_3": null,
      "city": "Saint Petersburg",
      "state_province": "Florida",
      "postal_code": "33712-1240",
      "country": "United States",
      "longitude": "-82.6629721",
      "latitude": "27.76899022",
      "phone": "7274956002",
      "website_url": "http://www.3dbrewing.com",
      "state": "Florida",
      "street": "222 22nd St S"
    },
    {
      "id": "1218736c-bfcf-4b95-b473-7399aaf60d1d",
      "name": "3 Keys Brewing Company, LLC",
      "brewery_type": "brewpub",
      "address_1": "2505 Manatee Ave E",
      "address_2": null,
      "address_3": null,
      "city": "Bradenton",
      "state_province": "Florida",
      "postal_code": "34208-2421",
      "country": "United States",
      "longitude": "-82.53393502",
      "latitude": "27.49645026",
      "phone": "9412180396",
      "website_url": "http://www.3keysbrewing.com",
      "state": "Florida",
      "street": "2505 Manatee Ave E"
    },
    {
      "id": "4679ff59-8ef6-4443-b6ec-f58232c6b7d7",
      "name": "7venth Sun Tampa",
      "brewery_type": "micro",
      "address_1": "6809 N Nebraska Ave",
      "address_2": null,
      "address_3": null,
      "city": "Tampa",
      "state_province": "Florida",
      "postal_code": "33604-5660",
      "country": "United States",
      "longitude": "-82.4500207",
      "latitude": "27.9495902",
      "phone": "8132315900",
      "website_url": null,
      "state": "Florida",
      "street": "6809 N Nebraska Ave"
    },
    {
      "id": "e2ddeea8-03d4-43e7-bfd0-d27797b9d016",
      "name": "3 Sons Brewing Co.",
      "brewery_type": "proprietor",
      "address_1": "236 N Federal Hwy",
      "address_2": null,
      "address_3": null,
      "city": "Dania",
      "state_province": "Florida",
      "postal_code": "33004-2870",
      "country": "United States",
      "longitude": "-80.14361029",
      "latitude": "26.04800238",
      "phone": "9546013833",
      "website_url": "http://www.3sonsbrewingco.com",
      "state": "Florida",
      "street": "236 N Federal Hwy"
    },
    {
      "id": "370fdc3b-55a0-43f0-a54e-f617a7cec7b8",
      "name": "3rd Planet Brewing",
      "brewery_type": "micro",
      "address_1": "120 Partin Dr N",
      "address_2": null,
      "address_3": null,
      "city": "Niceville",
      "state_province": "Florida",
      "postal_code": "32578-2053",
      "country": "United States",
      "longitude": null,
      "latitude": null,
      "phone": "8505029952",
      "website_url": "http://www.facebook.com/3rdplanetbrewing/",
      "state": "Florida",
      "street": "120 Partin Dr N"
    },
    {
      "id": "c179a049-9988-4640-821d-ddf349cdd87e",
      "name": "7venth Sun Brewery",
      "brewery_type": "micro",
      "address_1": "1012 Broadway",
      "address_2": null,
      "address_3": null,
      "city": "Dunedin",
      "state_province": "Florida",
      "postal_code": "34698-5762",
      "country": "United States",
      "longitude": null,
      "latitude": null,
      "phone": "7277333013",
      "website_url": "http://www.7venthsun.com",
      "state": "Florida",
      "street": "1012 Broadway"
    },
    {
      "id": "783c5daa-ea5c-4462-836e-c2846ad3ff4e",
      "name": "81Bay Brewing Company",
      "brewery_type": "micro",
      "address_1": "4465 W Gandy Blvd Ste 600",
      "address_2": null,
      "address_3": null,
      "city": "Tampa",
      "state_province": "Florida",
      "postal_code": "33611-3379",
      "country": "United States",
      "longitude": null,
      "latitude": null,
      "phone": "8133722739",
      "website_url": "http://81baybrewco.com",
      "state": "Florida",
      "street": "4465 W Gandy Blvd Ste 600"
    },
    {
      "id": "88a7ac77-a52b-4496-91df-b41e5831a568",
      "name": "A Little Madness Brewing Company",
      "brewery_type": "planning",
      "address_1": null,
      "address_2": null,
      "address_3": null,
      "city": "Pensacola",
      "state_province": "Florida",
      "postal_code": "32514-8122",
      "country": "United States",
      "longitude": null,
      "latitude": null,
      "phone": null,
      "website_url": "http://www.ALittleMadnessBrewingCompany.com",
      "state": "Florida",
      "street": null
    },
    {
      "id": "5b627789-ff7e-4890-a7cf-24572bf547a2",
      "name": "Aardwolf Brewing Company",
      "brewery_type": "micro",
      "address_1": "1461 Hendricks Ave",
      "address_2": null,
      "address_3": null,
      "city": "Jacksonville",
      "state_province": "Florida",
      "postal_code": "32207-8622",
      "country": "United States",
      "longitude": "-81.6545197",
      "latitude": "30.3108962",
      "phone": "9043010755",
      "website_url": "http://www.aardwolfbrewing.com",
      "state": "Florida",
      "street": "1461 Hendricks Ave"
    },
    {
      "id": "9c7b9f2a-6deb-44a1-9b3e-f83952a4db38",
      "name": "Abbey Brewing Co",
      "brewery_type": "contract",
      "address_1": "1115 16th St",
      "address_2": null,
      "address_3": null,
      "city": "Miami Beach",
      "state_province": "Florida",
      "postal_code": "33139-2441",
      "country": "United States",
      "longitude": "-80.1402943",
      "latitude": "25.7890381",
      "phone": "3055388110",
      "website_url": null,
      "state": "Florida",
      "street": "1115 16th St"
    },
    {
      "id": "ec26cd9a-540f-4f23-b030-670115eed645",
      "name": "Alcatraz Brewing",
      "brewery_type": "micro",
      "address_1": "20 Ocean Vista Ln",
      "address_2": null,
      "address_3": null,
      "city": "Palm Coast",
      "state_province": "Florida",
      "postal_code": "32137-2743",
      "country": "United States",
      "longitude": "-81.19287028",
      "latitude": "29.61781196",
      "phone": "3866278909",
      "website_url": "http://www.alcatraz.beer",
      "state": "Florida",
      "street": "20 Ocean Vista Ln"
    },
    {
      "id": "10795316-cc0d-42d7-80c7-e237aae40a06",
      "name": "Alligator Brewing / Tall Paul's Brewhouse",
      "brewery_type": "micro",
      "address_1": "10 SE 2nd Ave",
      "address_2": null,
      "address_3": null,
      "city": "Gainesville",
      "state_province": "Florida",
      "postal_code": "32601-6232",
      "country": "United States",
      "longitude": "-82.3222523",
      "latitude": "29.6502615",
      "phone": "3525050990",
      "website_url": null,
      "state": "Florida",
      "street": "10 SE 2nd Ave"
    },
    {
      "id": "f02ee574-d02d-486f-8d2e-851ad54b25ab",
      "name": "Amelia Island Brewing Company",
      "brewery_type": "brewpub",
      "address_1": "318 Centre St",
      "address_2": null,
      "address_3": null,
      "city": "Fernandina Beach",
      "state_province": "Florida",
      "postal_code": "32034-4241",
      "country": "United States",
      "longitude": "-81.46236272",
      "latitude": "30.67106045",
      "phone": "9043106088",
      "website_url": "http://www.theameliatavern.com",
      "state": "Florida",
      "street": "318 Centre St"
    },
    {
      "id": "6ec8cb60-72f6-4c30-af4b-3e59e736b3fc",
      "name": "American Icon Brewery",
      "brewery_type": "brewpub",
      "address_1": "1133 19th Place",
      "address_2": null,
      "address_3": null,
      "city": "Vero Beach",
      "state_province": "Florida",
      "postal_code": "32960",
      "country": "United States",
      "longitude": "-80.3955067",
      "latitude": "27.63674361",
      "phone": "7729344266",
      "website_url": "http://www.americaniconbrewery.com",
      "state": "Florida",
      "street": "1133 19th Place"
    },
    {
      "id": "045441f8-1882-4960-9e4d-0a32d24625e6",
      "name": "Americana Brewery",
      "brewery_type": "planning",
      "address_1": null,
      "address_2": null,
      "address_3": null,
      "city": "Fort Lauderdale",
      "state_province": "Florida",
      "postal_code": "33328-1606",
      "country": "United States",
      "longitude": null,
      "latitude": null,
      "phone": null,
      "website_url": null,
      "state": "Florida",
      "street": null
    },
    {
      "id": "6c8aafd9-6e4a-4f1d-9dc0-a5e4cb710dce",
      "name": "Ancient City Brewing Co.",
      "brewery_type": "micro",
      "address_1": "3420 Agricultural Center Dr Ste 8",
      "address_2": null,
      "address_3": null,
      "city": "Saint Augustine",
      "state_province": "Florida",
      "postal_code": "32092-0690",
      "country": "United States",
      "longitude": null,
      "latitude": null,
      "phone": "9044299654",
      "website_url": "http://www.ancientcitybrewing.com",
      "state": "Florida",
      "street": "3420 Agricultural Center Dr Ste 8"
    },
    {
      "id": "d4e376b6-3aad-46ae-ae8d-471791ae03f8",
      "name": "Angry Chair Brewing, LLC.",
      "brewery_type": "micro",
      "address_1": "6401 N Florida Ave",
      "address_2": null,
      "address_3": null,
      "city": "Tampa",
      "state_province": "Florida",
      "postal_code": "33604-6007",
      "country": "United States",
      "longitude": "-82.459381",
      "latitude": "28.005127",
      "phone": "8138921651",
      "website_url": "http://www.angrychairbrewing.com",
      "state": "Florida",
      "street": "6401 N Florida Ave"
    },
    {
      "id": "a7e9194f-28a7-4fb8-85fb-38ee669b66e6",
      "name": "Anheuser-Busch Inc â Jacksonville",
      "brewery_type": "large",
      "address_1": "111 Busch Dr",
      "address_2": null,
      "address_3": null,
      "city": "Jacksonville",
      "state_province": "Florida",
      "postal_code": "32218-5546",
      "country": "United States",
      "longitude": "-81.6481156",
      "latitude": "30.4319552",
      "phone": "9047510700",
      "website_url": null,
      "state": "Florida",
      "street": "111 Busch Dr"
    },
    {
      "id": "236cb5e3-d827-453a-a3a4-5a4d59d87adf",
      "name": "Ankrolab Brewing Company",
      "brewery_type": "planning",
      "address_1": null,
      "address_2": null,
      "address_3": null,
      "city": "Naples",
      "state_province": "Florida",
      "postal_code": "34112-6363",
      "country": "United States",
      "longitude": null,
      "latitude": null,
      "phone": "2394511223",
      "website_url": "http://ankrolab.com",
      "state": "Florida",
      "street": null
    },
    {
      "id": "5acdc1a1-5631-4c03-960c-bd076237f124",
      "name": "Arkane Aleworks",
      "brewery_type": "micro",
      "address_1": "2480 E Bay Dr #23",
      "address_2": null,
      "address_3": null,
      "city": "Largo",
      "state_province": "Florida",
      "postal_code": "33771-2467",
      "country": "United States",
      "longitude": null,
      "latitude": null,
      "phone": "7272707117",
      "website_url": "http://www.arkanebeer.com",
      "state": "Florida",
      "street": "2480 E Bay Dr #23"
    },
    {
      "id": "4e0403f6-c040-4d4c-b9fe-1f5a115b0172",
      "name": "Atlantic Beach Brewing Company",
      "brewery_type": "micro",
      "address_1": "725 Atlantic Blvd Suite 3",
      "address_2": null,
      "address_3": null,
      "city": "Atlantic Beach",
      "state_province": "Florida",
      "postal_code": "32233-3946",
      "country": "United States",
      "longitude": null,
      "latitude": null,
      "phone": "9048948426",
      "website_url": "http://www.atlanticbeachbrewingcompany.com",
      "state": "Florida",
      "street": "725 Atlantic Blvd Suite 3"
    },
    {
      "id": "1d5ac885-33a0-4bed-971b-dfb24772eb0b",
      "name": "Backyard Barn Winery and Microbrewery",
      "brewery_type": "micro",
      "address_1": "1945 E County Road 462",
      "address_2": null,
      "address_3": null,
      "city": "Wildwood",
      "state_province": "Florida",
      "postal_code": "34785-8594",
      "country": "United States",
      "longitude": null,
      "latitude": null,
      "phone": "3524187887",
      "website_url": "http://www.backyardbardwinery.com",
      "state": "Florida",
      "street": "1945 E County Road 462"
    },
    {
      "id": "e049fe2d-95ad-4c99-8c93-439f39339b60",
      "name": "Bangin' Banjo Brewing Company",
      "brewery_type": "micro",
      "address_1": "3200 NW 23rd Ave Ste 500",
      "address_2": null,
      "address_3": null,
      "city": "Pompano Beach",
      "state_province": "Florida",
      "postal_code": "33069-5909",
      "country": "United States",
      "longitude": null,
      "latitude": null,
      "phone": "9549783113",
      "website_url": "http://www.banginbanjobrewing.com",
      "state": "Florida",
      "street": "3200 NW 23rd Ave Ste 500"
    },
    {
      "id": "4eb9962b-708d-4221-9eee-f68e2abead7a",
      "name": "Barrel of Monks Brewing",
      "brewery_type": "micro",
      "address_1": "1141 S Rogers Cir Ste 5",
      "address_2": null,
      "address_3": null,
      "city": "Boca Raton",
      "state_province": "Florida",
      "postal_code": "33487-2789",
      "country": "United States",
      "longitude": null,
      "latitude": null,
      "phone": "5615101253",
      "website_url": "http://www.barrelofmonks.com",
      "state": "Florida",
      "street": "1141 S Rogers Cir Ste 5"
    },
    {
      "id": "bd4c1883-0fa4-4ebf-84a5-750eeccb7546",
      "name": "Barrie Brewing Company",
      "brewery_type": "planning",
      "address_1": null,
      "address_2": null,
      "address_3": null,
      "city": "Gainesville",
      "state_province": "Florida",
      "postal_code": "32607-4807",
      "country": "United States",
      "longitude": null,
      "latitude": null,
      "phone": null,
      "website_url": null,
      "state": "Florida",
      "street": null
    },
    {
      "id": "469e0667-cecc-4e07-b27c-443a187baf51",
      "name": "Bastet Brewing",
      "brewery_type": "planning",
      "address_1": null,
      "address_2": null,
      "address_3": null,
      "city": "Tampa",
      "state_province": "Florida",
      "postal_code": "33613-1254",
      "country": "United States",
      "longitude": null,
      "latitude": null,
      "phone": null,
      "website_url": "http://www.bastetbrewing.com",
      "state": "Florida",
      "street": null
    },
    {
      "id": "b39a23d8-56f2-48a3-b505-3f460935ec54",
      "name": "Bay Brewing Company",
      "brewery_type": "planning",
      "address_1": null,
      "address_2": null,
      "address_3": null,
      "city": "Miami",
      "state_province": "Florida",
      "postal_code": "33130-3488",
      "country": "United States",
      "longitude": null,
      "latitude": null,
      "phone": "18134763767",
      "website_url": null,
      "state": "Florida",
      "street": null
    },
    {
      "id": "827042d6-0920-484e-94ae-6f8ef520cd74",
      "name": "BeachFly Brewing Company",
      "brewery_type": "planning",
      "address_1": null,
      "address_2": null,
      "address_3": null,
      "city": "Indian Harbour Beach",
      "state_province": "Florida",
      "postal_code": "32937",
      "country": "United States",
      "longitude": null,
      "latitude": null,
      "phone": "3214124900",
      "website_url": null,
      "state": "Florida",
      "street": null
    },
    {
      "id": "4f5f6278-99db-45cf-9ed3-72744cd475d4",
      "name": "Beachside Brew Pub",
      "brewery_type": "micro",
      "address_1": "1368 Ocean Shore Blvd",
      "address_2": null,
      "address_3": null,
      "city": "Ormond Beach",
      "state_province": "Florida",
      "postal_code": "32176-3630",
      "country": "United States",
      "longitude": "-81.057048",
      "latitude": "29.326634",
      "phone": "3868465143",
      "website_url": "http://www.beachsidebrewpub.com",
      "state": "Florida",
      "street": "1368 Ocean Shore Blvd"
    },
    {
      "id": "7aa429f1-a3c8-4ff8-b2c3-18a451dee621",
      "name": "Beer Religion",
      "brewery_type": "planning",
      "address_1": null,
      "address_2": null,
      "address_3": null,
      "city": "Winter Park",
      "state_province": "Florida",
      "postal_code": "32792-5111",
      "country": "United States",
      "longitude": null,
      "latitude": null,
      "phone": null,
      "website_url": null,
      "state": "Florida",
      "street": null
    },
    {
      "id": "1a67833a-71e7-482e-9f85-9726583aceb7",
      "name": "Big Bear Brewing Co",
      "brewery_type": "brewpub",
      "address_1": "1800 N University Dr",
      "address_2": null,
      "address_3": null,
      "city": "Coral Springs",
      "state_province": "Florida",
      "postal_code": "33071-6031",
      "country": "United States",
      "longitude": "-80.2505088",
      "latitude": "26.2992083",
      "phone": "9543415545",
      "website_url": "http://www.bigbearbrewingco.com",
      "state": "Florida",
      "street": "1800 N University Dr"
    },
    {
      "id": "b9f816db-8d71-4be2-9370-5100c2b1257a",
      "name": "Big Blue Brewing",
      "brewery_type": "brewpub",
      "address_1": "4721 SE 10th Pl",
      "address_2": null,
      "address_3": null,
      "city": "Cape Coral",
      "state_province": "Florida",
      "postal_code": "33904-9168",
      "country": "United States",
      "longitude": "-81.95242639",
      "latitude": "26.56445895",
      "phone": "9737693294",
      "website_url": "http://www.bigbluebrewing.com",
      "state": "Florida",
      "street": "4721 SE 10th Pl"
    },
    {
      "id": "077585a3-1bbb-46fa-90ac-6494765afc75",
      "name": "Big River Grille & Brewing Works - Disney",
      "brewery_type": "brewpub",
      "address_1": "2101 Epcot Resorts Blvd",
      "address_2": null,
      "address_3": null,
      "city": "Lake Buena Vista",
      "state_province": "Florida",
      "postal_code": "32830-8442",
      "country": "United States",
      "longitude": null,
      "latitude": null,
      "phone": "4075600253",
      "website_url": "http://www.craftworksrestaurants.com",
      "state": "Florida",
      "street": "2101 Epcot Resorts Blvd"
    },
    {
      "id": "20a11408-a1f1-408c-89c0-aef4faef79c4",
      "name": "Big Storm Brewing",
      "brewery_type": "micro",
      "address_1": "839 Miramar St",
      "address_2": null,
      "address_3": null,
      "city": "Cape Coral",
      "state_province": "Florida",
      "postal_code": "33904-9046",
      "country": "United States",
      "longitude": "-81.9557454",
      "latitude": "26.5609342",
      "phone": null,
      "website_url": null,
      "state": "Florida",
      "street": "839 Miramar St"
    },
    {
      "id": "881c39be-bb1c-4517-ad04-f6bd052fd74c",
      "name": "Big Storm Brewing",
      "brewery_type": "micro",
      "address_1": "2330 Success Dr",
      "address_2": null,
      "address_3": null,
      "city": "Odessa",
      "state_province": "Florida",
      "postal_code": "33556",
      "country": "United States",
      "longitude": "-82.62618762",
      "latitude": "28.19192178",
      "phone": "7273762890",
      "website_url": null,
      "state": "Florida",
      "street": "2330 Success Dr"
    },
    {
      "id": "491566c3-b7e2-42f6-a400-545ef0ceffdb",
      "name": "Big Storm Brewing Co.",
      "brewery_type": "micro",
      "address_1": "12707 49th St N",
      "address_2": null,
      "address_3": null,
      "city": "Clearwater",
      "state_province": "Florida",
      "postal_code": "33762-4604",
      "country": "United States",
      "longitude": null,
      "latitude": null,
      "phone": "7274970666",
      "website_url": "http://www.bigstormbrewery.com",
      "state": "Florida",
      "street": "12707 49th St N"
    },
    {
      "id": "83b19e83-5855-4e53-88e4-987ab398d8ae",
      "name": "Big Top Brewing Company",
      "brewery_type": "micro",
      "address_1": "6111 Porter Way Unit B",
      "address_2": null,
      "address_3": null,
      "city": "Sarasota",
      "state_province": "Florida",
      "postal_code": "34232-6224",
      "country": "United States",
      "longitude": null,
      "latitude": null,
      "phone": null,
      "website_url": "http://Bigtopbrewing.com",
      "state": "Florida",
      "street": "6111 Porter Way Unit B"
    },
    {
      "id": "9baed18a-8f26-4e9a-a56f-280ced6d1d7a",
      "name": "Biscayne Bay Brewing Co",
      "brewery_type": "micro",
      "address_1": "8000 NW 25th St Ste 500",
      "address_2": null,
      "address_3": null,
      "city": "Miami",
      "state_province": "Florida",
      "postal_code": "33122-1631",
      "country": "United States",
      "longitude": null,
      "latitude": null,
      "phone": null,
      "website_url": null,
      "state": "Florida",
      "street": "8000 NW 25th St Ste 500"
    },
    {
      "id": "bf4605ce-568b-4442-a8e0-41d0d261b451",
      "name": "Blackadder Brewing Company",
      "brewery_type": "micro",
      "address_1": "618 NW 60th St Ste A",
      "address_2": null,
      "address_3": null,
      "city": "Gainesville",
      "state_province": "Florida",
      "postal_code": "32607-6014",
      "country": "United States",
      "longitude": null,
      "latitude": null,
      "phone": "3523390324",
      "website_url": "http://www.blackadderbrewing.com",
      "state": "Florida",
      "street": "618 NW 60th St Ste A"
    },
    {
      "id": "941a14d9-f881-4f74-992c-75ab08d5837e",
      "name": "Bob Loblaw Brewing",
      "brewery_type": "planning",
      "address_1": null,
      "address_2": null,
      "address_3": null,
      "city": "Miami",
      "state_province": "Florida",
      "postal_code": "33179",
      "country": "United States",
      "longitude": null,
      "latitude": null,
      "phone": "3052495628",
      "website_url": "http://www.bobloblawbrewing.com",
      "state": "Florida",
      "street": null
    },
    {
      "id": "b3e33c9a-90f4-4ea3-9177-3b05e2ce0062",
      "name": "Bog Brewing Company",
      "brewery_type": "micro",
      "address_1": "218 W King St",
      "address_2": null,
      "address_3": null,
      "city": "Saint Augustine",
      "state_province": "Florida",
      "postal_code": "32084-4144",
      "country": "United States",
      "longitude": "-81.3267969",
      "latitude": "29.8908994",
      "phone": "9046793146",
      "website_url": "http://www.bogbrewery.com",
      "state": "Florida",
      "street": "218 W King St"
    },
    {
      "id": "6ac83b12-2e87-47ac-a439-11af6b9038a2",
      "name": "Bold City Brewery",
      "brewery_type": "micro",
      "address_1": "2670 Rosselle St Ste 7",
      "address_2": null,
      "address_3": null,
      "city": "Jacksonville",
      "state_province": "Florida",
      "postal_code": "32204-3004",
      "country": "United States",
      "longitude": null,
      "latitude": null,
      "phone": "9043796551",
      "website_url": "http://www.boldcitybrewery.com",
      "state": "Florida",
      "street": "2670 Rosselle St Ste 7"
    },
    {
      "id": "823d7543-75ef-4ce6-b3f3-6108eea702f8",
      "name": "Bold City Brewery",
      "brewery_type": "micro",
      "address_1": "109 E Bay St",
      "address_2": null,
      "address_3": null,
      "city": "Jacksonville",
      "state_province": "Florida",
      "postal_code": "32202-3414",
      "country": "United States",
      "longitude": "-81.656519",
      "latitude": "30.326002",
      "phone": "9045037682",
      "website_url": "http://www.boldcitybrewery.com",
      "state": "Florida",
      "street": "109 E Bay St"
    },
    {
      "id": "a2105e97-2f68-4d9d-a1eb-e2914936f086",
      "name": "Bone Hook Brewing Company",
      "brewery_type": "micro",
      "address_1": "1514 Immokalee Rd Unit 106",
      "address_2": null,
      "address_3": null,
      "city": "Naples",
      "state_province": "Florida",
      "postal_code": "34110-1454",
      "country": "United States",
      "longitude": null,
      "latitude": null,
      "phone": "2396318522",
      "website_url": "http://www.bonehookbrewing.com",
      "state": "Florida",
      "street": "1514 Immokalee Rd Unit 106"
    },
    {
      "id": "6c808c0d-3021-4545-ace7-652f67dd1d44",
      "name": "Bone Island Brewing",
      "brewery_type": "micro",
      "address_1": "1111 Eaton St",
      "address_2": null,
      "address_3": null,
      "city": "Key West",
      "state_province": "Florida",
      "postal_code": "33040-6926",
      "country": "United States",
      "longitude": "-81.79651464",
      "latitude": "24.56141707",
      "phone": "3053043472",
      "website_url": "http://www.boneislandbrewing.com",
      "state": "Florida",
      "street": "1111 Eaton St"
    },
    {
      "id": "6fce9f76-f613-4654-b32e-1c22994ee157",
      "name": "Bousa Brewing Company",
      "brewery_type": "micro",
      "address_1": "7235 NE 4th Ave",
      "address_2": null,
      "address_3": null,
      "city": "Miami",
      "state_province": "Florida",
      "postal_code": "33138-5315",
      "country": "United States",
      "longitude": "-80.18941017",
      "latitude": "25.8414587",
      "phone": "3053635166",
      "website_url": "http://www.bousabrewing.com",
      "state": "Florida",
      "street": "7235 NE 4th Ave"
    },
    {
      "id": "ec41c18f-88fd-47ba-8677-b9b44ccef39c",
      "name": "Bowigens Beer Company",
      "brewery_type": "micro",
      "address_1": "1014 State Road 436",
      "address_2": null,
      "address_3": null,
      "city": "Casselberry",
      "state_province": "Florida",
      "postal_code": "32707-5722",
      "country": "United States",
      "longitude": null,
      "latitude": null,
      "phone": "4079607816",
      "website_url": "http://www.bowigens.com",
      "state": "Florida",
      "street": "1014 State Road 436"
    },
    {
      "id": "58d96e3e-6dae-4fae-a383-1a0c2c2edbf1",
      "name": "Bremen Beer Ventures",
      "brewery_type": "planning",
      "address_1": null,
      "address_2": null,
      "address_3": null,
      "city": "Key Biscayne",
      "state_province": "Florida",
      "postal_code": "33149-7213",
      "country": "United States",
      "longitude": null,
      "latitude": null,
      "phone": "3059036996",
      "website_url": null,
      "state": "Florida",
      "street": null
    },
    {
      "id": "c932db7a-8671-4052-ae9b-64ed0eb05e0b",
      "name": "Brew Angels LLC",
      "brewery_type": "brewpub",
      "address_1": "6821 Caroline St",
      "address_2": null,
      "address_3": null,
      "city": "Milton",
      "state_province": "Florida",
      "postal_code": "32570-2206",
      "country": "United States",
      "longitude": "-87.038565",
      "latitude": "30.621944",
      "phone": "8505640034",
      "website_url": null,
      "state": "Florida",
      "street": "6821 Caroline St"
    }
  ],
  "favorites_Breweries": [
    {
      "name": "Alewife Brewing Company",
      "id": 1
    },
    {
      "name": "Big Alice Brewing Company",
      "id": 2
    },
    {
      "name": "Alewife Brewing Company",
      "id": 3
    },
    {
      "name": "Alewife Brewing Company",
      "id": 4
    },
    {
      "name": "Alewife Brewing Company",
      "id": 5
    },
    {
      "name": "Artisanal Brew Works",
      "id": 6
    },
    {
      "name": "Artisanal Brew Works",
      "id": 7
    },
    {
      "name": "Artisanal Brew Works",
      "id": 8
    },
    {
      "name": "Artisanal Brew Works",
      "id": 9
    },
    {
      "name": "Artisanal Brew Works",
      "id": 10
    },
    {
      "name": "Artisanal Brew Works",
      "id": 11
    },
    {
      "name": "Artisanal Brew Works",
      "id": 12
    },
    {
      "name": "Alewife Brewing Company",
      "id": 13
    },
    {
      "name": "Big Alice Brewing Company",
      "id": 14
    },
    {
      "name": "Big Alice Brewing Company",
      "id": 15
    },
    {
      "name": "Alewife Brewing Company",
      "id": 16
    },
    {
      "name": "Big Alice Brewing Company",
      "id": 17
    },
    {
      "name": "Big Alice Brewing Company",
      "id": 18
    },
    {
      "name": "Alewife Brewing Company",
      "id": 19
    }
  ]
}